{
    "type": "FeatureCollection",
    "crs": {
        "type": "name",
        "properties": {
            "name": "urn:ogc:def:crs:EPSG::3857"
        }
    }, 
    "features": [{
        "type": "Feature",
        "properties": {
            "NAME": "Z.T Acker Special Programs Center & Office Complex",
            "ADDRESS": "7159 Hickory St",
            "TYPE": "PUB",
            "SUBTYPE": 5,
            "STATUS": "COMP",
            "DISTRICT": "FISD"
        },
        "geometry": {
            "type": "Point",
            "coordinates": [-10778303.571570294, 3914691.164645531]
        }
    }, {
        "type": "Feature",
        "properties": {
            "NAME": "Ida Lee Bright Elementary School",
            "ADDRESS": "7600 Woodstream Dr",
            "TYPE": "PUB",
            "SUBTYPE": 2,
            "STATUS": "COMP",
            "DISTRICT": "FISD"
        },
        "geometry": {
            "type": "Point",
            "coordinates": [-10777196.253184866, 3914147.4923502905]
        }
    }, {
        "type": "Feature",
        "properties": {
            "NAME": "J.W. and Ruth Christie Elementary School",
            "ADDRESS": "10300 Huntington Rd",
            "TYPE": "PUB",
            "SUBTYPE": 2,
            "STATUS": "COMP",
            "DISTRICT": "FISD"
        },
        "geometry": {
            "type": "Point",
            "coordinates": [-10774681.147876222, 3915062.8788832305]
        }
    }, {
        "type": "Feature",
        "properties": {
            "NAME": "Claude Curtsinger Elementary School",
            "ADDRESS": "12450 Jereme Trl",
            "TYPE": "PUB",
            "SUBTYPE": 2,
            "STATUS": "COMP",
            "DISTRICT": "FISD"
        },
        "geometry": {
            "type": "Point",
            "coordinates": [-10772390.29205816, 3911804.43075649]
        }
    }, {
        "type": "Feature",
        "properties": {
            "NAME": "Noel A. Smith Elementary School",
            "ADDRESS": "9800 Sean Dr",
            "TYPE": "PUB",
            "SUBTYPE": 2,
            "STATUS": "COMP",
            "DISTRICT": "FISD"
        },
        "geometry": {
            "type": "Point",
            "coordinates": [-10775272.962029874, 3910493.8829800515]
        }
    }, {
        "type": "Feature",
        "properties": {
            "NAME": "Adelle R. Clark Middle School",
            "ADDRESS": "4600 Colby Dr",
            "TYPE": "PUB",
            "SUBTYPE": 3,
            "STATUS": "COMP",
            "DISTRICT": "FISD"
        },
        "geometry": {
            "type": "Point",
            "coordinates": [-10775263.925870104, 3910780.099904592]
        }
    }, {
        "type": "Feature",
        "properties": {
            "NAME": "Mary M Boals Elementary School",
            "ADDRESS": "2035 Jaguar Dr",
            "TYPE": "PUB",
            "SUBTYPE": 2,
            "STATUS": "COMP",
            "DISTRICT": "FISD"
        },
        "geometry": {
            "type": "Point",
            "coordinates": [-10783896.022424826, 3920177.776167277]
        }
    }, {
        "type": "Feature",
        "properties": {
            "NAME": "Wilma Fisher Elementary School",
            "ADDRESS": "2500 Old Orchard Dr",
            "TYPE": "PUB",
            "SUBTYPE": 2,
            "STATUS": "COMP",
            "DISTRICT": "FISD"
        },
        "geometry": {
            "type": "Point",
            "coordinates": [-10783424.062315168, 3916392.162382588]
        }
    }, {
        "type": "Feature",
        "properties": {
            "NAME": "Frisco High School",
            "ADDRESS": "6401 Parkwood Blvd",
            "TYPE": "PUB",
            "SUBTYPE": 4,
            "STATUS": "COMP",
            "DISTRICT": "FISD"
        },
        "geometry": {
            "type": "Point",
            "coordinates": [-10778193.606637457, 3912796.6130800215]
        }
    }, {
        "type": "Feature",
        "properties": {
            "NAME": "FISD Early Childhood School",
            "ADDRESS": "10330 Red Cedar Dr",
            "TYPE": "PUB",
            "SUBTYPE": 5,
            "STATUS": "COMP",
            "DISTRICT": "FISD"
        },
        "geometry": {
            "type": "Point",
            "coordinates": [-10774700.042954354, 3915330.155844404]
        }
    }, {
        "type": "Feature",
        "properties": {
            "NAME": "Bessie Gunstream Elementary School",
            "ADDRESS": "7600 Rockyridge Rd",
            "TYPE": "PUB",
            "SUBTYPE": 2,
            "STATUS": "COMP",
            "DISTRICT": "FISD"
        },
        "geometry": {
            "type": "Point",
            "coordinates": [-10773079.437160555, 3914202.108679361]
        }
    }, {
        "type": "Feature",
        "properties": {
            "NAME": "Cal and Walt Wester Middle School",
            "ADDRESS": "12293 Shepherds Hill Ln",
            "TYPE": "PUB",
            "SUBTYPE": 3,
            "STATUS": "COMP",
            "DISTRICT": "FISD"
        },
        "geometry": {
            "type": "Point",
            "coordinates": [-10772634.552642215, 3914056.5296127493]
        }
    }, {
        "type": "Feature",
        "properties": {
            "NAME": "Calvin Bledsoe Elementary School",
            "ADDRESS": "1900 Timber Ridge Dr",
            "TYPE": "PUB",
            "SUBTYPE": 2,
            "STATUS": "COMP",
            "DISTRICT": "FISD"
        },
        "geometry": {
            "type": "Point",
            "coordinates": [-10783914.47825673, 3912590.203321456]
        }
    }, {
        "type": "Feature",
        "properties": {
            "NAME": "Bert and Eloise Isbell Elementary School",
            "ADDRESS": "6000 Maltby Dr",
            "TYPE": "PUB",
            "SUBTYPE": 2,
            "STATUS": "COMP",
            "DISTRICT": "FISD"
        },
        "geometry": {
            "type": "Point",
            "coordinates": [-10769190.367479863, 3912238.9966752096]
        }
    }, {
        "type": "Feature",
        "properties": {
            "NAME": "Lucille Rogers Ashley Elementary School",
            "ADDRESS": "15601 Christopher Ln",
            "TYPE": "PUB",
            "SUBTYPE": 2,
            "STATUS": "COMP",
            "DISTRICT": "FISD"
        },
        "geometry": {
            "type": "Point",
            "coordinates": [-10768815.897599502, 3917856.2075305767]
        }
    }, {
        "type": "Feature",
        "properties": {
            "NAME": "Tom Hicks Elementary School",
            "ADDRESS": "3651 Compass Drive",
            "TYPE": "PUB",
            "SUBTYPE": 2,
            "STATUS": "COMP",
            "DISTRICT": "LISD"
        },
        "geometry": {
            "type": "Point",
            "coordinates": [-10780897.05666698, 3909870.032177692]
        }
    }, {
        "type": "Feature",
        "properties": {
            "NAME": "Liberty High School",
            "ADDRESS": "15250 Rolater Rd",
            "TYPE": "PUB",
            "SUBTYPE": 4,
            "STATUS": "COMP",
            "DISTRICT": "FISD"
        },
        "geometry": {
            "type": "Point",
            "coordinates": [-10769341.900036277, 3913834.8708985285]
        }
    }, {
        "type": "Feature",
        "properties": {
            "NAME": "Isabel Pierce Sem Elementary School",
            "ADDRESS": "12721 Honey Grove Dr",
            "TYPE": "PUB",
            "SUBTYPE": 2,
            "STATUS": "COMP",
            "DISTRICT": "FISD"
        },
        "geometry": {
            "type": "Point",
            "coordinates": [-10773240.359874148, 3919631.103746683]
        }
    }, {
        "type": "Feature",
        "properties": {
            "NAME": "Weldon F. Corbell Elementary School",
            "ADDRESS": "11095 Monarch Dr",
            "TYPE": "PUB",
            "SUBTYPE": 2,
            "STATUS": "COMP",
            "DISTRICT": "FISD"
        },
        "geometry": {
            "type": "Point",
            "coordinates": [-10784753.287847666, 3916859.730243368]
        }
    }, {
        "type": "Feature",
        "properties": {
            "NAME": "Dr. Erwin G. and Elisabeth Pink Elementary School",
            "ADDRESS": "3650 Overhill Dr",
            "TYPE": "PUB",
            "SUBTYPE": 2,
            "STATUS": "COMP",
            "DISTRICT": "FISD"
        },
        "geometry": {
            "type": "Point",
            "coordinates": [-10782189.743482435, 3918335.765646171]
        }
    }, {
        "type": "Feature",
        "properties": {
            "NAME": "I.S. Rogers Elementary School",
            "ADDRESS": "10500 Rogers Rd",
            "TYPE": "PUB",
            "SUBTYPE": 2,
            "STATUS": "COMP",
            "DISTRICT": "FISD"
        },
        "geometry": {
            "type": "Point",
            "coordinates": [-10776953.883884497, 3917362.0456555993]
        }
    }, {
        "type": "Feature",
        "properties": {
            "NAME": "Shawnee Trail Elementary School",
            "ADDRESS": "10701 Preston Vineyard Dr",
            "TYPE": "PUB",
            "SUBTYPE": 2,
            "STATUS": "COMP",
            "DISTRICT": "FISD"
        },
        "geometry": {
            "type": "Point",
            "coordinates": [-10774531.576602915, 3913111.267438133]
        }
    }, {
        "type": "Feature",
        "properties": {
            "NAME": "Izetta Sparks Elementary School",
            "ADDRESS": "8200 Otis Dr",
            "TYPE": "PUB",
            "SUBTYPE": 2,
            "STATUS": "COMP",
            "DISTRICT": "FISD"
        },
        "geometry": {
            "type": "Point",
            "coordinates": [-10784938.10339581, 3914888.6093992223]
        }
    }, {
        "type": "Feature",
        "properties": {
            "NAME": "Otis Spears Elementary School",
            "ADDRESS": "8500 Wade Blvd",
            "TYPE": "PUB",
            "SUBTYPE": 2,
            "STATUS": "COMP",
            "DISTRICT": "FISD"
        },
        "geometry": {
            "type": "Point",
            "coordinates": [-10776855.087155588, 3912622.4436417534]
        }
    }, {
        "type": "Feature",
        "properties": {
            "NAME": "Bennett and Alma Griffin Middle School",
            "ADDRESS": "3703 Eldorado Pkwy",
            "TYPE": "PUB",
            "SUBTYPE": 3,
            "STATUS": "COMP",
            "DISTRICT": "FISD"
        },
        "geometry": {
            "type": "Point",
            "coordinates": [-10782104.19293614, 3918788.91819105]
        }
    }, {
        "type": "Feature",
        "properties": {
            "NAME": "Pioneer Heritage Middle School",
            "ADDRESS": "1649 High Shoals Dr",
            "TYPE": "PUB",
            "SUBTYPE": 3,
            "STATUS": "COMP",
            "DISTRICT": "FISD"
        },
        "geometry": {
            "type": "Point",
            "coordinates": [-10784384.713054119, 3914231.8987133964]
        }
    }, {
        "type": "Feature",
        "properties": {
            "NAME": "Sam and Ann Roach Middle School",
            "ADDRESS": "12499 Independence Pkwy",
            "TYPE": "PUB",
            "SUBTYPE": 3,
            "STATUS": "COMP",
            "DISTRICT": "FISD"
        },
        "geometry": {
            "type": "Point",
            "coordinates": [-10770356.101297807, 3919398.8822646225]
        }
    }, {
        "type": "Feature",
        "properties": {
            "NAME": "Benton A. Staley Middle School",
            "ADDRESS": "6927 Stadium Ln",
            "TYPE": "PUB",
            "SUBTYPE": 3,
            "STATUS": "COMP",
            "DISTRICT": "FISD"
        },
        "geometry": {
            "type": "Point",
            "coordinates": [-10778357.563210985, 3916098.224718789]
        }
    }, {
        "type": "Feature",
        "properties": {
            "NAME": "Justin Wakeland High School",
            "ADDRESS": "10700 Legacy Dr",
            "TYPE": "PUB",
            "SUBTYPE": 4,
            "STATUS": "COMP",
            "DISTRICT": "FISD"
        },
        "geometry": {
            "type": "Point",
            "coordinates": [-10780808.839490332, 3917577.988198565]
        }
    }, {
        "type": "Feature",
        "properties": {
            "NAME": "Robert Cobb Middle School",
            "ADDRESS": "9400 Teel Pkwy",
            "TYPE": "PUB",
            "SUBTYPE": 3,
            "STATUS": "COMP",
            "DISTRICT": "FISD"
        },
        "geometry": {
            "type": "Point",
            "coordinates": [-10782652.801449465, 3916071.35507716]
        }
    }, {
        "type": "Feature",
        "properties": {
            "NAME": "Gerald Sonntag Elementary School",
            "ADDRESS": "2002 Reagan Dr",
            "TYPE": "PUB",
            "SUBTYPE": 2,
            "STATUS": "COMP",
            "DISTRICT": "FISD"
        },
        "geometry": {
            "type": "Point",
            "coordinates": [-10769451.58303099, 3920114.0437573455]
        }
    }, {
        "type": "Feature",
        "properties": {
            "NAME": "Armetha Norris Elementary School",
            "ADDRESS": "10101 Shepton Ln",
            "TYPE": "PUB",
            "SUBTYPE": 2,
            "STATUS": "COMP",
            "DISTRICT": "FISD"
        },
        "geometry": {
            "type": "Point",
            "coordinates": [-10769638.409498518, 3916658.366142043]
        }
    }, {
        "type": "Feature",
        "properties": {
            "NAME": "Debra Nelson Middle School",
            "ADDRESS": "NEC Independence Pkwy/Havenwood Ln",
            "TYPE": "PUB",
            "SUBTYPE": 3,
            "STATUS": "COMP",
            "DISTRICT": "FISD"
        },
        "geometry": {
            "type": "Point",
            "coordinates": [-10769986.737037055, 3916661.6705294047]
        }
    }, {
        "type": "Feature",
        "properties": {
            "NAME": "Reba Cobb Carroll Elementary School",
            "ADDRESS": "4380 Throne Hall Dr",
            "TYPE": "PUB",
            "SUBTYPE": 2,
            "STATUS": "COMP",
            "DISTRICT": "FISD"
        },
        "geometry": {
            "type": "Point",
            "coordinates": [-10781292.884329192, 3916438.3023071466]
        }
    }, {
        "type": "Feature",
        "properties": {
            "NAME": "Charlie and Charlotte Mooneyham Elelmentary School",
            "ADDRESS": "2301 Eden Dr",
            "TYPE": "PUB",
            "SUBTYPE": 2,
            "STATUS": "COMP",
            "DISTRICT": "FISD"
        },
        "geometry": {
            "type": "Point",
            "coordinates": [-10771169.222300109, 3919827.8423852557]
        }
    }, {
        "type": "Feature",
        "properties": {
            "NAME": "Collin County Community College",
            "ADDRESS": "9700 Wade Blvd",
            "TYPE": "PUB",
            "SUBTYPE": 7,
            "STATUS": "COMP",
            "DISTRICT": null
        },
        "geometry": {
            "type": "Point",
            "coordinates": [-10774913.722268978, 3912718.426326786]
        }
    }, {
        "type": "Feature",
        "properties": {
            "NAME": "Amberton University",
            "ADDRESS": "3880 Parkwood Blvd",
            "TYPE": "PRI",
            "SUBTYPE": 7,
            "STATUS": "COMP",
            "DISTRICT": null
        },
        "geometry": {
            "type": "Point",
            "coordinates": [-10777397.786686858, 3909933.299338884]
        }
    }, {
        "type": "Feature",
        "properties": {
            "NAME": "Dr. J.M. Ogle Elementary School",
            "ADDRESS": "4200 Big Fork Trl",
            "TYPE": "PUB",
            "SUBTYPE": 2,
            "STATUS": "COMP",
            "DISTRICT": "FISD"
        },
        "geometry": {
            "type": "Point",
            "coordinates": [-10767384.06333763, 3916381.8156028027]
        }
    }, {
        "type": "Feature",
        "properties": {
            "NAME": "Proposed Elementary School",
            "ADDRESS": "West of Alma Dr and North of Kickapoo Dr",
            "TYPE": "PUB",
            "SUBTYPE": 2,
            "STATUS": "PROP",
            "DISTRICT": "FISD"
        },
        "geometry": {
            "type": "Point",
            "coordinates": [-10766277.18532677, 3914932.9356075497]
        }
    }, {
        "type": "Feature",
        "properties": {
            "NAME": "Richard L. Scoggins Middle School",
            "ADDRESS": "7070 Stacy Rd",
            "TYPE": "PUB",
            "SUBTYPE": 3,
            "STATUS": "COMP",
            "DISTRICT": "FISD"
        },
        "geometry": {
            "type": "Point",
            "coordinates": [-10765590.074890185, 3915703.768614986]
        }
    }, {
        "type": "Feature",
        "properties": {
            "NAME": "Edris Childres Elliot Elementary School",
            "ADDRESS": "3721 Hudson Xing",
            "TYPE": "PUB",
            "SUBTYPE": 2,
            "STATUS": "COMP",
            "DISTRICT": "FISD"
        },
        "geometry": {
            "type": "Point",
            "coordinates": [-10765014.955592208, 3917224.102672664]
        }
    }, {
        "type": "Feature",
        "properties": {
            "NAME": "William and Abbie Allen Elementary School",
            "ADDRESS": "5800 Legacy Drive",
            "TYPE": "PUB",
            "SUBTYPE": 2,
            "STATUS": "COMP",
            "DISTRICT": "FISD"
        },
        "geometry": {
            "type": "Point",
            "coordinates": [-10780998.237239327, 3912039.465462854]
        }
    }, {
        "type": "Feature",
        "properties": {
            "NAME": "University of Dallas",
            "ADDRESS": "7460 Warren Pkwy",
            "TYPE": "PRI",
            "SUBTYPE": 7,
            "STATUS": "COMP",
            "DISTRICT": null
        },
        "geometry": {
            "type": "Point",
            "coordinates": [-10777970.441070715, 3909660.1409846325]
        }
    }, {
        "type": "Feature",
        "properties": {
            "NAME": "Ruth Borchardt Elementary School",
            "ADDRESS": "4300 Waskom Dr",
            "TYPE": "PUB",
            "SUBTYPE": 2,
            "STATUS": "COMP",
            "DISTRICT": "FISD"
        },
        "geometry": {
            "type": "Point",
            "coordinates": [-10773123.098825539, 3908924.416839079]
        }
    }, {
        "type": "Feature",
        "properties": {
            "NAME": "Portia Ross Taylor Elementary School",
            "ADDRESS": "9865 Gillispie Dr",
            "TYPE": "PUB",
            "SUBTYPE": 2,
            "STATUS": "COMP",
            "DISTRICT": "FISD"
        },
        "geometry": {
            "type": "Point",
            "coordinates": [-10771336.742625456, 3910167.0946781076]
        }
    }, {
        "type": "Feature",
        "properties": {
            "NAME": "Naoma and M. Allen Anderson Elementary School",
            "ADDRESS": "2800 Oakland Hills",
            "TYPE": "PUB",
            "SUBTYPE": 2,
            "STATUS": "COMP",
            "DISTRICT": "FISD"
        },
        "geometry": {
            "type": "Point",
            "coordinates": [-10769817.231863443, 3909302.3270956976]
        }
    }, {
        "type": "Feature",
        "properties": {
            "NAME": "Jessie Marie Riddle Elementary School",
            "ADDRESS": "8201 Robinson Rd",
            "TYPE": "PUB",
            "SUBTYPE": 2,
            "STATUS": "COMP",
            "DISTRICT": "FISD"
        },
        "geometry": {
            "type": "Point",
            "coordinates": [-10774521.305063402, 3907241.058902497]
        }
    }, {
        "type": "Feature",
        "properties": {
            "NAME": "Robertson Elementary School",
            "ADDRESS": "2501  Woodlake Pkwy",
            "TYPE": "PUB",
            "SUBTYPE": 2,
            "STATUS": "COMP",
            "DISTRICT": "FISD"
        },
        "geometry": {
            "type": "Point",
            "coordinates": [-10786168.32940158, 3920906.635296131]
        }
    }, {
        "type": "Feature",
        "properties": {
            "NAME": "FISD Child Development Center",
            "ADDRESS": "7075 Hickory Street",
            "TYPE": "PUB",
            "SUBTYPE": 5,
            "STATUS": "COMP",
            "DISTRICT": "FISD"
        },
        "geometry": {
            "type": "Point",
            "coordinates": [-10778408.407600312, 3914722.882142314]
        }
    }, {
        "type": "Feature",
        "properties": {
            "NAME": "Bruce Eubanks Natatorium",
            "ADDRESS": "7411 First Street",
            "TYPE": "PUB",
            "SUBTYPE": 5,
            "STATUS": "COMP",
            "DISTRICT": "FISD"
        },
        "geometry": {
            "type": "Point",
            "coordinates": [-10778101.833801687, 3916501.5835702387]
        }
    }, {
        "type": "Feature",
        "properties": {
            "NAME": "George and Debra Purefoy Elementary School",
            "ADDRESS": "11880 Teel Pkwy",
            "TYPE": "PUB",
            "SUBTYPE": 2,
            "STATUS": "COMP",
            "DISTRICT": "FISD"
        },
        "geometry": {
            "type": "Point",
            "coordinates": [-10782925.272028526, 3918754.4710687874]
        }
    }, {
        "type": "Feature",
        "properties": {
            "NAME": "Student Opportunity Center",
            "ADDRESS": "6928 Maple St",
            "TYPE": "PUB",
            "SUBTYPE": 5,
            "STATUS": "COMP",
            "DISTRICT": "FISD"
        },
        "geometry": {
            "type": "Point",
            "coordinates": [-10778413.544057414, 3915833.7651503617]
        }
    }, {
        "type": "Feature",
        "properties": {
            "NAME": "Sue Wilson Stafford Middle School",
            "ADDRESS": "2288 Little River Road",
            "TYPE": "PUB",
            "SUBTYPE": 3,
            "STATUS": "COMP",
            "DISTRICT": "FISD"
        },
        "geometry": {
            "type": "Point",
            "coordinates": [-10783469.651142392, 3921665.511809222]
        }
    }, {
        "type": "Feature",
        "properties": {
            "NAME": "Pat and Catherine Fowler Middle School",
            "ADDRESS": "3801 McDermott Rd",
            "TYPE": "PUB",
            "SUBTYPE": 3,
            "STATUS": "COMP",
            "DISTRICT": "FISD"
        },
        "geometry": {
            "type": "Point",
            "coordinates": [-10772066.44074293, 3908864.774291632]
        }
    }, {
        "type": "Feature",
        "properties": {
            "NAME": "FISD PAC",
            "ADDRESS": "6942 Maple St",
            "TYPE": "PUB",
            "SUBTYPE": 5,
            "STATUS": "COMP",
            "DISTRICT": "FISD"
        },
        "geometry": {
            "type": "Point",
            "coordinates": [-10778377.073893646, 3915765.3867398696]
        }
    }, {
        "type": "Feature",
        "properties": {
            "NAME": "FISD Administration Annex",
            "ADDRESS": "6948 Maples St",
            "TYPE": "PUB",
            "SUBTYPE": 5,
            "STATUS": "COMP",
            "DISTRICT": "FISD"
        },
        "geometry": {
            "type": "Point",
            "coordinates": [-10778225.50597767, 3915860.7401064024]
        }
    }, {
        "type": "Feature",
        "properties": {
            "NAME": "FISD Athletic Offices",
            "ADDRESS": "6950 Stadium Ln",
            "TYPE": "PUB",
            "SUBTYPE": 5,
            "STATUS": "COMP",
            "DISTRICT": "FISD"
        },
        "geometry": {
            "type": "Point",
            "coordinates": [-10778232.071748486, 3916351.7221300066]
        }
    }, {
        "type": "Feature",
        "properties": {
            "NAME": "FISD Memorial Stadium",
            "ADDRESS": "6942 Stadium Ln",
            "TYPE": "PUB",
            "SUBTYPE": 5,
            "STATUS": "COMP",
            "DISTRICT": "FISD"
        },
        "geometry": {
            "type": "Point",
            "coordinates": [-10778374.282956945, 3916264.4886747454]
        }
    }, {
        "type": "Feature",
        "properties": {
            "NAME": "FISD Service Center",
            "ADDRESS": "12050 Rolater Rd",
            "TYPE": "PUB",
            "SUBTYPE": 5,
            "STATUS": "COMP",
            "DISTRICT": "FISD"
        },
        "geometry": {
            "type": "Point",
            "coordinates": [-10772807.452084854, 3913733.9588763122]
        }
    }, {
        "type": "Feature",
        "properties": {
            "NAME": "FISD Transportation West",
            "ADDRESS": "10701 Dallas Pkwy",
            "TYPE": "PUB",
            "SUBTYPE": 5,
            "STATUS": "COMP",
            "DISTRICT": "FISD"
        },
        "geometry": {
            "type": "Point",
            "coordinates": [-10780374.792868195, 3917366.0377118015]
        }
    }, {
        "type": "Feature",
        "properties": {
            "NAME": "Sam Carter Service Center",
            "ADDRESS": "12025 Rolater Rd",
            "TYPE": "PUB",
            "SUBTYPE": 5,
            "STATUS": "COMP",
            "DISTRICT": "FISD"
        },
        "geometry": {
            "type": "Point",
            "coordinates": [-10772809.234084452, 3913536.762145138]
        }
    }, {
        "type": "Feature",
        "properties": {
            "NAME": "FISD Agricultural Barn",
            "ADDRESS": "9700 First St",
            "TYPE": "PUB",
            "SUBTYPE": 5,
            "STATUS": "COMP",
            "DISTRICT": "FISD"
        },
        "geometry": {
            "type": "Point",
            "coordinates": [-10778684.257323379, 3916362.366105185]
        }
    }, {
        "type": "Feature",
        "properties": {
            "NAME": "FISD Transportation",
            "ADDRESS": "6700 Cherry St",
            "TYPE": "PUB",
            "SUBTYPE": 5,
            "STATUS": "COMP",
            "DISTRICT": "FISD"
        },
        "geometry": {
            "type": "Point",
            "coordinates": [-10778659.972644439, 3916145.623463767]
        }
    }, {
        "type": "Feature",
        "properties": {
            "NAME": "Billy Vandeventer Middle School",
            "ADDRESS": "6075 Independence Pkwy",
            "TYPE": "PUB",
            "SUBTYPE": 3,
            "STATUS": "COMP",
            "DISTRICT": "FISD"
        },
        "geometry": {
            "type": "Point",
            "coordinates": [-10770363.121885262, 3912348.402839592]
        }
    }, {
        "type": "Feature",
        "properties": {
            "NAME": "Billy Gene Phillips Elementary School",
            "ADDRESS": "2285 Little River Dr",
            "TYPE": "PUB",
            "SUBTYPE": 2,
            "STATUS": "COMP",
            "DISTRICT": "FISD"
        },
        "geometry": {
            "type": "Point",
            "coordinates": [-10783482.02957193, 3921452.5359774474]
        }
    }, {
        "type": "Feature",
        "properties": {
            "NAME": "Joyce Comstock Elementary School",
            "ADDRESS": null,
            "TYPE": "PUB",
            "SUBTYPE": 2,
            "STATUS": "COMP",
            "DISTRICT": "FISD"
        },
        "geometry": {
            "type": "Point",
            "coordinates": [-10765903.640111709, 3916618.337968316]
        }
    }, {
        "type": "Feature",
        "properties": {
            "NAME": "Gene and Ruby Nichols Elementary School",
            "ADDRESS": "2111 Nichols Trl",
            "TYPE": "PUB",
            "SUBTYPE": 2,
            "STATUS": "COMP",
            "DISTRICT": "FISD"
        },
        "geometry": {
            "type": "Point",
            "coordinates": [-10784053.786409402, 3913972.872712775]
        }
    }, {
        "type": "Feature",
        "properties": {
            "NAME": "FISD Central Admin",
            "ADDRESS": "5515 Ohio Dr",
            "TYPE": "PUB",
            "SUBTYPE": 5,
            "STATUS": "COMP",
            "DISTRICT": "FISD"
        },
        "geometry": {
            "type": "Point",
            "coordinates": [-10775354.896437153, 3911862.3653031094]
        }
    }, {
        "type": "Feature",
        "properties": {
            "NAME": "Legacy Christian Academy Elementary School",
            "ADDRESS": "5000 Academy Dr",
            "TYPE": "PRI",
            "SUBTYPE": 2,
            "STATUS": "COMP",
            "DISTRICT": null
        },
        "geometry": {
            "type": "Point",
            "coordinates": [-10780866.806674948, 3912374.98408697]
        }
    }, {
        "type": "Feature",
        "properties": {
            "NAME": "Legacy Christian Academy High School",
            "ADDRESS": "6525 Fighting Eagles Ln",
            "TYPE": "PRI",
            "SUBTYPE": 4,
            "STATUS": "COMP",
            "DISTRICT": null
        },
        "geometry": {
            "type": "Point",
            "coordinates": [-10780629.857931653, 3912761.3264973164]
        }
    }, {
        "type": "Feature",
        "properties": {
            "NAME": "Career and Technical Education Center",
            "ADDRESS": "9889 Wade Blvd",
            "TYPE": "PUB",
            "SUBTYPE": 5,
            "STATUS": "COMP",
            "DISTRICT": "FISD"
        },
        "geometry": {
            "type": "Point",
            "coordinates": [-10775319.88922764, 3912145.0162750245]
        }
    }, {
        "type": "Feature",
        "properties": {
            "NAME": "Proposed Elementary School",
            "ADDRESS": null,
            "TYPE": "PUB",
            "SUBTYPE": 2,
            "STATUS": "PROP",
            "DISTRICT": "FISD"
        },
        "geometry": {
            "type": "Point",
            "coordinates": [-10785516.92614115, 3916848.8848334667]
        }
    }, {
        "type": "Feature",
        "properties": {
            "NAME": "James Reeder Newman Elementary School",
            "ADDRESS": "12333 Briar Ridge Rd",
            "TYPE": "PUB",
            "SUBTYPE": 2,
            "STATUS": "COMP",
            "DISTRICT": "FISD"
        },
        "geometry": {
            "type": "Point",
            "coordinates": [-10782243.254630664, 3919335.013740725]
        }
    }, {
        "type": "Feature",
        "properties": {
            "NAME": "Jimmy and Sammy Lee (Lane) Vaugh Elementary School",
            "ADDRESS": "3535 Guinn Gate Dr",
            "TYPE": "PUB",
            "SUBTYPE": 2,
            "STATUS": "COMP",
            "DISTRICT": "FISD"
        },
        "geometry": {
            "type": "Point",
            "coordinates": [-10782301.165041653, 3913559.3555911873]
        }
    }, {
        "type": "Feature",
        "properties": {
            "NAME": "Hackberry Elementary School",
            "ADDRESS": "7200 Snug Harbor Circle",
            "TYPE": "PUB",
            "SUBTYPE": 2,
            "STATUS": "COMP",
            "DISTRICT": null
        },
        "geometry": {
            "type": "Point",
            "coordinates": [-10789666.055699253, 3915637.028915428]
        }
    }, {
        "type": "Feature",
        "properties": {
            "NAME": "Janice Stahly Scott Elementary School",
            "ADDRESS": "10550 Millbend Dr",
            "TYPE": "PUB",
            "SUBTYPE": 2,
            "STATUS": "COMP",
            "DISTRICT": "FISD"
        },
        "geometry": {
            "type": "Point",
            "coordinates": [-10771275.31707914, 3921058.3511110903]
        }
    }, {
        "type": "Feature",
        "properties": {
            "NAME": "Hosp Elementary School",
            "ADDRESS": "5050 Lone Star Ranch Pkwy",
            "TYPE": "PUB",
            "SUBTYPE": 2,
            "STATUS": "COMP",
            "DISTRICT": "FISD"
        },
        "geometry": {
            "type": "Point",
            "coordinates": [-10784978.393983569, 3911313.623163864]
        }
    }, {
        "type": "Feature",
        "properties": {
            "NAME": "Proposed Middle School",
            "ADDRESS": "SE Corner Coit/CR 68",
            "TYPE": "PUB",
            "SUBTYPE": 3,
            "STATUS": "PROP",
            "DISTRICT": "FISD"
        },
        "geometry": {
            "type": "Point",
            "coordinates": [-10771921.770365281, 3911468.5926708085]
        }
    }, {
        "type": "Feature",
        "properties": {
            "NAME": "Proposed Elementary School",
            "ADDRESS": null,
            "TYPE": "PUB",
            "SUBTYPE": 2,
            "STATUS": "PROP",
            "DISTRICT": "FISD"
        },
        "geometry": {
            "type": "Point",
            "coordinates": [-10785190.926429663, 3912539.5357653447]
        }
    }, {
        "type": "Feature",
        "properties": {
            "NAME": "Charles Bishop Pearson Middle School",
            "ADDRESS": "2323 Stonebrook Pkwy",
            "TYPE": "PUB",
            "SUBTYPE": 3,
            "STATUS": "COMP",
            "DISTRICT": "FISD"
        },
        "geometry": {
            "type": "Point",
            "coordinates": [-10783568.635121662, 3912814.346495397]
        }
    }, {
        "type": "Feature",
        "properties": {
            "NAME": "Rick Reedy High School",
            "ADDRESS": "3003 Stonebrook Pkwy",
            "TYPE": "PUB",
            "SUBTYPE": 4,
            "STATUS": "COMP",
            "DISTRICT": "FISD"
        },
        "geometry": {
            "type": "Point",
            "coordinates": [-10782891.374997372, 3912770.167904684]
        }
    }, {
        "type": "Feature",
        "properties": {
            "NAME": "Trent Middle School",
            "ADDRESS": "13131 Coleto Creek Dr",
            "TYPE": "PUB",
            "SUBTYPE": 3,
            "STATUS": "COMP",
            "DISTRICT": "FISD"
        },
        "geometry": {
            "type": "Point",
            "coordinates": [-10780640.204670593, 3920164.486329445]
        }
    }, {
        "type": "Feature",
        "properties": {
            "NAME": "Polly Tadlock Elementary School",
            "ADDRESS": "12515 Godfrey Dr",
            "TYPE": "PUB",
            "SUBTYPE": 2,
            "STATUS": "COMP",
            "DISTRICT": "FISD"
        },
        "geometry": {
            "type": "Point",
            "coordinates": [-10774398.043257453, 3919386.473891417]
        }
    }, {
        "type": "Feature",
        "properties": {
            "NAME": "Heritage High School",
            "ADDRESS": "14040 Eldorado Pkwy",
            "TYPE": "PUB",
            "SUBTYPE": 4,
            "STATUS": "COMP",
            "DISTRICT": "FISD"
        },
        "geometry": {
            "type": "Point",
            "coordinates": [-10770705.30604115, 3918669.8206639853]
        }
    }, {
        "type": "Feature",
        "properties": {
            "NAME": "Independence High School",
            "ADDRESS": "10555 Independence Pkwy",
            "TYPE": "PUB",
            "SUBTYPE": 4,
            "STATUS": "COMP",
            "DISTRICT": "FISD"
        },
        "geometry": {
            "type": "Point",
            "coordinates": [-10770428.776865823, 3917165.107941158]
        }
    }, {
        "type": "Feature",
        "properties": {
            "NAME": "McSpedden Elementary School",
            "ADDRESS": "14040 Countrybrook Dr",
            "TYPE": "PUB",
            "SUBTYPE": 2,
            "STATUS": "COMP",
            "DISTRICT": "FISD"
        },
        "geometry": {
            "type": "Point",
            "coordinates": [-10770645.912149956, 3914128.154303976]
        }
    }, {
        "type": "Feature",
        "properties": {
            "NAME": "Centennial High School",
            "ADDRESS": "6901 Coit Rd",
            "TYPE": "PUB",
            "SUBTYPE": 4,
            "STATUS": "COMP",
            "DISTRICT": "FISD"
        },
        "geometry": {
            "type": "Point",
            "coordinates": [-10772341.3195713, 3913409.5714929714]
        }
    }, {
        "type": "Feature",
        "properties": {
            "NAME": "Lamar and Norma Hunt Middle School",
            "ADDRESS": "4900 Legendary Dr",
            "TYPE": "PUB",
            "SUBTYPE": 3,
            "STATUS": "COMP",
            "DISTRICT": "FISD"
        },
        "geometry": {
            "type": "Point",
            "coordinates": [-10776655.144179877, 3911155.797407885]
        }
    }, {
        "type": "Feature",
        "properties": {
            "NAME": "Coy Miller Elementary School",
            "ADDRESS": null,
            "TYPE": "PUB",
            "SUBTYPE": 2,
            "STATUS": "COMP",
            "DISTRICT": "FISD"
        },
        "geometry": {
            "type": "Point",
            "coordinates": [-10786363.107529815, 3923221.506499467]
        }
    }, {
        "type": "Feature",
        "properties": {
            "NAME": "Libby Maus Middle School",
            "ADDRESS": "12175 Coit Rd",
            "TYPE": "PUB",
            "SUBTYPE": 3,
            "STATUS": "COMP",
            "DISTRICT": "FISD"
        },
        "geometry": {
            "type": "Point",
            "coordinates": [-10772255.271122651, 3918929.4553104327]
        }
    }, {
        "type": "Feature",
        "properties": {
            "NAME": "Proposed High School",
            "ADDRESS": null,
            "TYPE": "PUB",
            "SUBTYPE": 4,
            "STATUS": "PROP",
            "DISTRICT": "FISD"
        },
        "geometry": {
            "type": "Point",
            "coordinates": [-10764504.819116963, 3914800.248724223]
        }
    }, {
        "type": "Feature",
        "properties": {
            "NAME": "Proposed Elementary School",
            "ADDRESS": null,
            "TYPE": "PUB",
            "SUBTYPE": 2,
            "STATUS": "PROP",
            "DISTRICT": "FISD"
        },
        "geometry": {
            "type": "Point",
            "coordinates": [-10776648.528707286, 3910820.833941608]
        }
    }, {
        "type": "Feature",
        "properties": {
            "NAME": "Proposed Elementary School",
            "ADDRESS": null,
            "TYPE": "PUB",
            "SUBTYPE": 2,
            "STATUS": "PROP",
            "DISTRICT": "FISD"
        },
        "geometry": {
            "type": "Point",
            "coordinates": [-10780686.67441912, 3920394.96799865]
        }
    }, {
        "type": "Feature",
        "properties": {
            "NAME": "Lone Star High School",
            "ADDRESS": "2606 Panther Creek Pkwy",
            "TYPE": "PUB",
            "SUBTYPE": 4,
            "STATUS": "COMP",
            "DISTRICT": "FISD"
        },
        "geometry": {
            "type": "Point",
            "coordinates": [-10783192.057278806, 3920692.132824576]
        }
    }, {
        "type": "Feature",
        "properties": {
            "NAME": "Leadership Prep School",
            "ADDRESS": "8500 Teel Pkwy",
            "TYPE": "PRI",
            "SUBTYPE": 2,
            "STATUS": "COMP",
            "DISTRICT": null
        },
        "geometry": {
            "type": "Point",
            "coordinates": [-10782746.802906234, 3915079.6218006792]
        }
    }, {
        "type": "Feature",
        "properties": {
            "NAME": "Kenneth \"Rex\" Talley Elementary School",
            "ADDRESS": "5900 Coit Rd",
            "TYPE": "PUB",
            "SUBTYPE": 2,
            "STATUS": "COMP",
            "DISTRICT": "FISD"
        },
        "geometry": {
            "type": "Point",
            "coordinates": [-10771999.512183703, 3912098.509985021]
        }
    }, {
        "type": "Feature",
        "properties": {
            "NAME": "Lebanon Trail High School",
            "ADDRESS": "5151 Ohio Dr",
            "TYPE": "PUB",
            "SUBTYPE": 4,
            "STATUS": "COMP",
            "DISTRICT": "FISD"
        },
        "geometry": {
            "type": "Point",
            "coordinates": [-10775744.739955312, 3911519.5264022285]
        }
    }, {
        "type": "Feature",
        "properties": {
            "NAME": "FISD Multi Use Event Center",
            "ADDRESS": "9 Cowboys Way",
            "TYPE": "PUB",
            "SUBTYPE": 5,
            "STATUS": "COMP",
            "DISTRICT": "FISD"
        },
        "geometry": {
            "type": "Point",
            "coordinates": [-10778860.880482526, 3910005.757002016]
        }
    }, {
        "type": "Feature",
        "properties": {
            "NAME": "Jim Spradley Elementary School",
            "ADDRESS": "11411 Leona St",
            "TYPE": "PUB",
            "SUBTYPE": 2,
            "STATUS": "COMP",
            "DISTRICT": "PISD"
        },
        "geometry": {
            "type": "Point",
            "coordinates": [-10773500.252004439, 3920528.518396323]
        }
    }, {
        "type": "Feature",
        "properties": {
            "NAME": "Proposed High School",
            "ADDRESS": "NWC Coit/Rockhill",
            "TYPE": "PUB",
            "SUBTYPE": 4,
            "STATUS": "PROP",
            "DISTRICT": "PISD"
        },
        "geometry": {
            "type": "Point",
            "coordinates": [-10772586.923428496, 3923032.4936128156]
        }
    }, {
        "type": "Feature",
        "properties": {
            "NAME": "Carlos Liscano Elementary School",
            "ADDRESS": "11222 Mammoth Cave Ln",
            "TYPE": null,
            "SUBTYPE": 2,
            "STATUS": "COMP",
            "DISTRICT": "FISD"
        },
        "geometry": {
            "type": "Point",
            "coordinates": [-10771298.966062736, 3918098.146454733]
        }
    }, {
        "type": "Feature",
        "properties": {
            "NAME": "Memorial High School",
            "ADDRESS": "12300 Frisco St",
            "TYPE": "PUB",
            "SUBTYPE": 4,
            "STATUS": "COMP",
            "DISTRICT": "FISD"
        },
        "geometry": {
            "type": "Point",
            "coordinates": [-10778979.1696445, 3919201.4149782136]
        }
    }, {
        "type": "Feature",
        "properties": {
            "NAME": "Lawler Middle School",
            "ADDRESS": "12921 Rolater Rd",
            "TYPE": "PUB",
            "SUBTYPE": 3,
            "STATUS": "COMP",
            "DISTRICT": "FISD"
        },
        "geometry": {
            "type": "Point",
            "coordinates": [-10772006.27737637, 3913416.631446967]
        }
    }, {
        "type": "Feature",
        "properties": {
            "NAME": "Bill Hays Middle School",
            "ADDRESS": "14441 HILLCREST RD",
            "TYPE": "PUB",
            "SUBTYPE": 3,
            "STATUS": "PROP",
            "DISTRICT": "PISD"
        },
        "geometry": {
            "type": "Point",
            "coordinates": [-10774281.77255261, 3921580.0034299768]
        }
    }]
}